[[],{"uid":"750348860","region":"Russia","coordinates":[440,300],"picker":"redDot","name":"1asdf","url":"","targetFrame":"","fontSize":"12","image":"img\/","description":"","cisDimensions":[1118.25,764]},{"uid":"119866337","region":"Russia","coordinates":[546,290],"picker":"greenDot","name":"asdf","url":"","targetFrame":"","fontSize":"12","image":"img\/","description":"","cisDimensions":[1118.25,764]},{"uid":"1590308632","region":"Russia","coordinates":[469,417],"picker":"blackStar","name":"asdfasd","url":"","targetFrame":"","fontSize":"12","image":"img\/","description":"","cisDimensions":[1118.25,764]},{"uid":"891894379","region":"Russia","coordinates":[472,455],"picker":"redPin","name":"adsfasdf","url":"","targetFrame":"","fontSize":"12","image":"img\/","description":"","cisDimensions":[1118.25,764]},{"uid":"659534247","region":"Russia","coordinates":[666,355],"picker":"redPin","name":"asdfasdf","url":"","targetFrame":"","fontSize":"12","image":"img\/","description":"","cisDimensions":[1118.25,764]},{"uid":"1206472436","region":"Russia","coordinates":[679,454],"picker":"blackStar","name":"asdfasdf","url":"","targetFrame":"","fontSize":"12","image":"img\/","description":"","cisDimensions":[1118.25,764]},{"uid":"1802963136","region":"Russia","coordinates":[678,402],"picker":"greenDot","name":"asdfasdf","url":"","targetFrame":"","fontSize":"12","image":"img\/","description":"","cisDimensions":[1118.25,764]},{"uid":"1859528113","region":"Russia","coordinates":[668,337],"picker":"redDot","name":"asdfasdf","url":"","targetFrame":"","fontSize":"12","image":"img\/","description":"","cisDimensions":[1118.25,764]},{"uid":"1701018031","region":"Russia","coordinates":[290,404],"picker":"redDot","name":"asdfasdf","url":"","targetFrame":"","fontSize":"12","image":"img\/","description":"","cisDimensions":[1118.25,764]},{"uid":"206753770","region":"Russia","coordinates":[285,453],"picker":"greenDot","name":"asdfasdfasd","url":"","targetFrame":"","fontSize":"12","image":"img\/","description":"","cisDimensions":[1118.25,764]},{"uid":"1386842072","region":"Russia","coordinates":[287,493],"picker":"blackStar","name":"asdfasdf","url":"","targetFrame":"","fontSize":"12","image":"img\/","description":"","cisDimensions":[1118.25,764]},{"uid":"683132215","region":"Russia","coordinates":[299,533],"picker":"redPin","name":"asdfasdf","url":"","targetFrame":"","fontSize":"12","image":"img\/","description":"","cisDimensions":[1105.5,755]},{"uid":"401780634","region":"Krasnoyarsk","coordinates":[553,290],"picker":"redPin","name":"asdfasdf","url":"","targetFrame":"","fontSize":"12","image":"img\/","description":"","cisDimensions":[1118.25,764]},{"uid":"1079928978","region":"Krasnoyarsk","coordinates":[551,469],"picker":"blackStar","name":"asdfasdf","url":"","targetFrame":"","fontSize":"12","image":"img\/","description":"","cisDimensions":[1118.25,764]},{"uid":"1372974515","region":"Krasnoyarsk","coordinates":[545,407],"picker":"greenDot","name":"asdfasdf","url":"","targetFrame":"","fontSize":"12","image":"img\/","description":"","cisDimensions":[1118.25,764]},{"uid":"185563701","region":"Krasnoyarsk","coordinates":[536,321],"picker":"redDot","name":"asdfasdf","url":"","targetFrame":"","fontSize":"12","image":"img\/","description":"","cisDimensions":[1118.25,764]}]